[
   {
      "id":281093,
      "name":"Shūkat aş Şūfī",
      "state":"",
      "country":"PS",
      "coord":{
         "lon":34.2826,
         "lat":31.25997
      }
   },
   {
      "id":281102,
      "name":"Rafaḩ",
      "state":"",
      "country":"PS",
      "coord":{
         "lon":34.259521,
         "lat":31.287001
      }
   },
   {
      "id":281109,
      "name":"An Nuşayrāt",
      "state":"",
      "country":"PS",
      "coord":{
         "lon":34.392502,
         "lat":31.44861
      }
   },
   {
      "id":281119,
      "name":"Khuzā‘ah",
      "state":"",
      "country":"PS",
      "coord":{
         "lon":34.361099,
         "lat":31.306749
      }
   },
   {
      "id":281124,
      "name":"Khān Yūnis",
      "state":"",
      "country":"PS",
      "coord":{
         "lon":34.306271,
         "lat":31.340179
      }
   },
   {
      "id":281129,
      "name":"Jabālyā",
      "state":"",
      "country":"PS",
      "coord":{
         "lon":34.48634,
         "lat":31.52722
      }
   },
   {
      "id":281132,
      "name":"Gaza Strip",
      "state":"",
      "country":"PS",
      "coord":{
         "lon":34.333328,
         "lat":31.41667
      }
   },
   {
      "id":281133,
      "name":"Gaza",
      "state":"",
      "country":"PS",
      "coord":{
         "lon":34.466671,
         "lat":31.5
      }
   },
   {
      "id":281141,
      "name":"Dayr al Balaḩ",
      "state":"",
      "country":"PS",
      "coord":{
         "lon":34.345249,
         "lat":31.41655
      }
   },
   {
      "id":281145,
      "name":"Bayt Lāhyā",
      "state":"",
      "country":"PS",
      "coord":{
         "lon":34.49514,
         "lat":31.5464
      }
   },
   {
      "id":281146,
      "name":"Bayt Ḩānūn",
      "state":"",
      "country":"PS",
      "coord":{
         "lon":34.535789,
         "lat":31.535299
      }
   },
   {
      "id":281148,
      "name":"Banī Suhaylā",
      "state":"",
      "country":"PS",
      "coord":{
         "lon":34.323372,
         "lat":31.34337
      }
   },
   {
      "id":281160,
      "name":"Al Fukhkhārī",
      "state":"",
      "country":"PS",
      "coord":{
         "lon":34.330608,
         "lat":31.29278
      }
   },
   {
      "id":281161,
      "name":"Al Burayj",
      "state":"",
      "country":"PS",
      "coord":{
         "lon":34.403061,
         "lat":31.43944
      }
   },
   {
      "id":281165,
      "name":"‘Abasān al Kabīrah",
      "state":"",
      "country":"PS",
      "coord":{
         "lon":34.34005,
         "lat":31.31913
      }
   },
   {
      "id":281184,
      "name":"Jerusalem",
      "state":"",
      "country":"IL",
      "coord":{
         "lon":35.216331,
         "lat":31.769039
      }
   },
   {
      "id":281207,
      "name":"Zubūbah",
      "state":"",
      "country":"PS",
      "coord":{
         "lon":35.22274,
         "lat":32.543461
      }
   },
   {
      "id":281226,
      "name":"Zaytā",
      "state":"",
      "country":"PS",
      "coord":{
         "lon":35.05122,
         "lat":32.385601
      }
   },
   {
      "id":281227,
      "name":"Zaytā Jammā‘īn",
      "state":"",
      "country":"PS",
      "coord":{
         "lon":35.185951,
         "lat":32.136978
      }
   },
   {
      "id":281236,
      "name":"Zawātā",
      "state":"",
      "country":"PS",
      "coord":{
         "lon":35.226501,
         "lat":32.246101
      }
   },
   {
      "id":281240,
      "name":"Za‘tarah",
      "state":"",
      "country":"PS",
      "coord":{
         "lon":35.256618,
         "lat":31.673611
      }
   },
   {
      "id":281292,
      "name":"Yuta",
      "state":"",
      "country":"PS",
      "coord":{
         "lon":35.083328,
         "lat":31.450001
      }
   },
   {
      "id":281293,
      "name":"Yatmā",
      "state":"",
      "country":"PS",
      "coord":{
         "lon":35.269089,
         "lat":32.108891
      }
   },
   {
      "id":281295,
      "name":"Yāsūf",
      "state":"",
      "country":"PS",
      "coord":{
         "lon":35.237839,
         "lat":32.10841
      }
   },
   {
      "id":281297,
      "name":"Yāşīd",
      "state":"",
      "country":"PS",
      "coord":{
         "lon":35.277569,
         "lat":32.296879
      }
   },
   {
      "id":281318,
      "name":"Ya‘bad",
      "state":"",
      "country":"PS",
      "coord":{
         "lon":35.168221,
         "lat":32.44566
      }
   },
   {
      "id":281356,
      "name":"Wādī Fūkīn",
      "state":"",
      "country":"PS",
      "coord":{
         "lon":35.103661,
         "lat":31.70702
      }
   },
   {
      "id":281408,
      "name":"‘Ūrīf",
      "state":"",
      "country":"PS",
      "coord":{
         "lon":35.222279,
         "lat":32.159489
      }
   },
   {
      "id":281548,
      "name":"Ūdalah",
      "state":"",
      "country":"PS",
      "coord":{
         "lon":35.276459,
         "lat":32.153629
      }
   },
   {
      "id":281560,
      "name":"Turmus‘ayyā",
      "state":"",
      "country":"PS",
      "coord":{
         "lon":35.285641,
         "lat":32.035381
      }
   },
   {
      "id":281577,
      "name":"Ţūlkarm",
      "state":"",
      "country":"PS",
      "coord":{
         "lon":35.028629,
         "lat":32.310371
      }
   },
   {
      "id":281581,
      "name":"Ţūbās",
      "state":"",
      "country":"PS",
      "coord":{
         "lon":35.369888,
         "lat":32.320911
      }
   },
   {
      "id":281623,
      "name":"Tayāsīr",
      "state":"",
      "country":"PS",
      "coord":{
         "lon":35.396042,
         "lat":32.34042
      }
   },
   {
      "id":281637,
      "name":"Tarqūmyā",
      "state":"",
      "country":"PS",
      "coord":{
         "lon":35.01223,
         "lat":31.57551
      }
   },
   {
      "id":281657,
      "name":"Ţammūn",
      "state":"",
      "country":"PS",
      "coord":{
         "lon":35.383671,
         "lat":32.28347
      }
   },
   {
      "id":281662,
      "name":"Ţallūzah",
      "state":"",
      "country":"PS",
      "coord":{
         "lon":35.29496,
         "lat":32.270561
      }
   },
   {
      "id":281674,
      "name":"Till",
      "state":"",
      "country":"PS",
      "coord":{
         "lon":35.212929,
         "lat":32.20068
      }
   },
   {
      "id":281675,
      "name":"Talfīt",
      "state":"",
      "country":"PS",
      "coord":{
         "lon":35.290939,
         "lat":32.086639
      }
   },
   {
      "id":281690,
      "name":"Taffūḩ",
      "state":"",
      "country":"PS",
      "coord":{
         "lon":35.04966,
         "lat":31.538549
      }
   },
   {
      "id":281715,
      "name":"Şūrīf",
      "state":"",
      "country":"PS",
      "coord":{
         "lon":35.064388,
         "lat":31.65078
      }
   },
   {
      "id":281716,
      "name":"Surdā",
      "state":"",
      "country":"PS",
      "coord":{
         "lon":35.203209,
         "lat":31.93709
      }
   },
   {
      "id":281764,
      "name":"Sīrīs",
      "state":"",
      "country":"PS",
      "coord":{
         "lon":35.29134,
         "lat":32.328281
      }
   },
   {
      "id":281778,
      "name":"Sinjil",
      "state":"",
      "country":"PS",
      "coord":{
         "lon":35.26545,
         "lat":32.03334
      }
   },
   {
      "id":281789,
      "name":"Silwād",
      "state":"",
      "country":"PS",
      "coord":{
         "lon":35.261299,
         "lat":31.97625
      }
   },
   {
      "id":281790,
      "name":"Sīlat az̧ Z̧ahr",
      "state":"",
      "country":"PS",
      "coord":{
         "lon":35.184181,
         "lat":32.31934
      }
   },
   {
      "id":281791,
      "name":"Sīlat al Ḩārithīyah",
      "state":"",
      "country":"PS",
      "coord":{
         "lon":35.22752,
         "lat":32.508469
      }
   },
   {
      "id":281793,
      "name":"Sa‘īr",
      "state":"",
      "country":"PS",
      "coord":{
         "lon":35.140171,
         "lat":31.57855
      }
   },
   {
      "id":281808,
      "name":"Shuqbā",
      "state":"",
      "country":"PS",
      "coord":{
         "lon":35.040119,
         "lat":31.986959
      }
   },
   {
      "id":281819,
      "name":"Shūfah",
      "state":"",
      "country":"PS",
      "coord":{
         "lon":35.081348,
         "lat":32.275509
      }
   },
   {
      "id":281965,
      "name":"Şaydā",
      "state":"",
      "country":"PS",
      "coord":{
         "lon":35.118561,
         "lat":32.384892
      }
   },
   {
      "id":281979,
      "name":"Şarţah",
      "state":"",
      "country":"PS",
      "coord":{
         "lon":35.09198,
         "lat":32.104469
      }
   },
   {
      "id":281982,
      "name":"Şarrah",
      "state":"",
      "country":"PS",
      "coord":{
         "lon":35.191471,
         "lat":32.209702
      }
   },
   {
      "id":281997,
      "name":"Şānūr",
      "state":"",
      "country":"PS",
      "coord":{
         "lon":35.245369,
         "lat":32.356079
      }
   },
   {
      "id":281998,
      "name":"Sannīryā",
      "state":"",
      "country":"PS",
      "coord":{
         "lon":35.04652,
         "lat":32.128769
      }
   },
   {
      "id":282034,
      "name":"Sālim",
      "state":"",
      "country":"PS",
      "coord":{
         "lon":35.330341,
         "lat":32.209621
      }
   },
   {
      "id":282039,
      "name":"Salfīt",
      "state":"",
      "country":"PS",
      "coord":{
         "lon":35.18079,
         "lat":32.083698
      }
   },
   {
      "id":282069,
      "name":"Şaffā",
      "state":"",
      "country":"PS",
      "coord":{
         "lon":35.06094,
         "lat":31.90563
      }
   },
   {
      "id":282108,
      "name":"Sabasţīyah",
      "state":"",
      "country":"PS",
      "coord":{
         "lon":35.19873,
         "lat":32.27562
      }
   },
   {
      "id":282119,
      "name":"Rummanah",
      "state":"",
      "country":"PS",
      "coord":{
         "lon":35.2048,
         "lat":32.524509
      }
   },
   {
      "id":282140,
      "name":"Rūjayb",
      "state":"",
      "country":"PS",
      "coord":{
         "lon":35.29332,
         "lat":32.190609
      }
   },
   {
      "id":282185,
      "name":"Rās Karkar",
      "state":"",
      "country":"PS",
      "coord":{
         "lon":35.107731,
         "lat":31.9424
      }
   },
   {
      "id":282230,
      "name":"Rantīs",
      "state":"",
      "country":"PS",
      "coord":{
         "lon":35.018791,
         "lat":32.027969
      }
   },
   {
      "id":282234,
      "name":"Rammūn",
      "state":"",
      "country":"PS",
      "coord":{
         "lon":35.298222,
         "lat":31.93342
      }
   },
   {
      "id":282237,
      "name":"Rāmīn",
      "state":"",
      "country":"PS",
      "coord":{
         "lon":35.149509,
         "lat":32.285198
      }
   },
   {
      "id":282239,
      "name":"Ramallah",
      "state":"",
      "country":"PS",
      "coord":{
         "lon":35.184589,
         "lat":31.89502
      }
   },
   {
      "id":282264,
      "name":"Rāfāt",
      "state":"",
      "country":"PS",
      "coord":{
         "lon":35.04417,
         "lat":32.07806
      }
   },
   {
      "id":282265,
      "name":"Rāfāt",
      "state":"",
      "country":"PS",
      "coord":{
         "lon":35.191818,
         "lat":31.87096
      }
   },
   {
      "id":282278,
      "name":"Rābā",
      "state":"",
      "country":"PS",
      "coord":{
         "lon":35.38298,
         "lat":32.38678
      }
   },
   {
      "id":282283,
      "name":"Quşrah",
      "state":"",
      "country":"PS",
      "coord":{
         "lon":35.330051,
         "lat":32.08543
      }
   },
   {
      "id":282284,
      "name":"Qūşīn",
      "state":"",
      "country":"PS",
      "coord":{
         "lon":35.182968,
         "lat":32.238289
      }
   },
   {
      "id":282340,
      "name":"Qiryat Arba‘",
      "state":"",
      "country":"PS",
      "coord":{
         "lon":35.118969,
         "lat":31.528379
      }
   },
   {
      "id":282342,
      "name":"Qīrah",
      "state":"",
      "country":"PS",
      "coord":{
         "lon":35.17173,
         "lat":32.122139
      }
   },
   {
      "id":282348,
      "name":"Qibyah",
      "state":"",
      "country":"PS",
      "coord":{
         "lon":35.009838,
         "lat":31.977341
      }
   },
   {
      "id":282376,
      "name":"Qaţanah",
      "state":"",
      "country":"PS",
      "coord":{
         "lon":35.118938,
         "lat":31.83366
      }
   },
   {
      "id":282423,
      "name":"Qaryūt",
      "state":"",
      "country":"PS",
      "coord":{
         "lon":35.294319,
         "lat":32.070042
      }
   },
   {
      "id":282438,
      "name":"Qarāwat Banī Zayd",
      "state":"",
      "country":"PS",
      "coord":{
         "lon":35.129082,
         "lat":32.054699
      }
   },
   {
      "id":282439,
      "name":"Qarāwat Banī Ḩasan",
      "state":"",
      "country":"PS",
      "coord":{
         "lon":35.100609,
         "lat":32.125679
      }
   },
   {
      "id":282457,
      "name":"Qalqīlyah",
      "state":"",
      "country":"PS",
      "coord":{
         "lon":34.970341,
         "lat":32.18924
      }
   },
   {
      "id":282461,
      "name":"Qalandiyā",
      "state":"",
      "country":"PS",
      "coord":{
         "lon":35.20816,
         "lat":31.86289
      }
   },
   {
      "id":282463,
      "name":"Qaffīn",
      "state":"",
      "country":"PS",
      "coord":{
         "lon":35.082661,
         "lat":32.432739
      }
   },
   {
      "id":282476,
      "name":"Qabāţīyah",
      "state":"",
      "country":"PS",
      "coord":{
         "lon":35.288231,
         "lat":32.412552
      }
   },
   {
      "id":282477,
      "name":"Qabalān",
      "state":"",
      "country":"PS",
      "coord":{
         "lon":35.289379,
         "lat":32.101822
      }
   },
   {
      "id":282510,
      "name":"Nūbā",
      "state":"",
      "country":"PS",
      "coord":{
         "lon":35.03455,
         "lat":31.608999
      }
   },
   {
      "id":282529,
      "name":"Ni‘līn",
      "state":"",
      "country":"PS",
      "coord":{
         "lon":35.020309,
         "lat":31.94746
      }
   },
   {
      "id":282540,
      "name":"Nazlat ‘Īsá",
      "state":"",
      "country":"PS",
      "coord":{
         "lon":35.05888,
         "lat":32.415619
      }
   },
   {
      "id":282582,
      "name":"Har Adar",
      "state":"",
      "country":"IL",
      "coord":{
         "lon":35.130932,
         "lat":31.827539
      }
   },
   {
      "id":282593,
      "name":"Naḩḩālīn",
      "state":"",
      "country":"PS",
      "coord":{
         "lon":35.120811,
         "lat":31.685591
      }
   },
   {
      "id":282615,
      "name":"Nablus",
      "state":"",
      "country":"PS",
      "coord":{
         "lon":35.25444,
         "lat":32.221111
      }
   },
   {
      "id":282687,
      "name":"Mikhmās",
      "state":"",
      "country":"PS",
      "coord":{
         "lon":35.275959,
         "lat":31.872101
      }
   },
   {
      "id":282740,
      "name":"Mislīyah",
      "state":"",
      "country":"PS",
      "coord":{
         "lon":35.2878,
         "lat":32.386131
      }
   },
   {
      "id":282746,
      "name":"Mirkah",
      "state":"",
      "country":"PS",
      "coord":{
         "lon":35.238071,
         "lat":32.395828
      }
   },
   {
      "id":282783,
      "name":"Banī Zayd ash Shārqīyah",
      "state":"",
      "country":"PS",
      "coord":{
         "lon":35.165932,
         "lat":32.049351
      }
   },
   {
      "id":282793,
      "name":"Maythalūn",
      "state":"",
      "country":"PS",
      "coord":{
         "lon":35.27446,
         "lat":32.34798
      }
   },
   {
      "id":282830,
      "name":"Maskiyyot",
      "state":"",
      "country":"PS",
      "coord":{
         "lon":35.5,
         "lat":32.316669
      }
   },
   {
      "id":282837,
      "name":"Masḩah",
      "state":"",
      "country":"PS",
      "coord":{
         "lon":35.050961,
         "lat":32.10828
      }
   },
   {
      "id":282872,
      "name":"Mardā",
      "state":"",
      "country":"PS",
      "coord":{
         "lon":35.195358,
         "lat":32.113811
      }
   },
   {
      "id":282941,
      "name":"Majdal Banī Fāḑil",
      "state":"",
      "country":"PS",
      "coord":{
         "lon":35.363781,
         "lat":32.083569
      }
   },
   {
      "id":282980,
      "name":"Mādamā",
      "state":"",
      "country":"PS",
      "coord":{
         "lon":35.23114,
         "lat":32.185879
      }
   },
   {
      "id":282997,
      "name":"Al Lubban ash Sharqīyah",
      "state":"",
      "country":"PS",
      "coord":{
         "lon":35.240299,
         "lat":32.07011
      }
   },
   {
      "id":283040,
      "name":"Kufayrit",
      "state":"",
      "country":"PS",
      "coord":{
         "lon":35.201839,
         "lat":32.443802
      }
   },
   {
      "id":283055,
      "name":"Kifil Ḩāris",
      "state":"",
      "country":"PS",
      "coord":{
         "lon":35.157188,
         "lat":32.118271
      }
   },
   {
      "id":283077,
      "name":"Ar Ramāḑīn",
      "state":"",
      "country":"PS",
      "coord":{
         "lon":34.91246,
         "lat":31.37952
      }
   },
   {
      "id":283096,
      "name":"Qalqas",
      "state":"",
      "country":"PS",
      "coord":{
         "lon":35.095348,
         "lat":31.492121
      }
   },
   {
      "id":283099,
      "name":"Imrīsh",
      "state":"",
      "country":"PS",
      "coord":{
         "lon":35.00819,
         "lat":31.46895
      }
   },
   {
      "id":283101,
      "name":"Marāḩ Rabbāḩ",
      "state":"",
      "country":"PS",
      "coord":{
         "lon":35.186878,
         "lat":31.63406
      }
   },
   {
      "id":283120,
      "name":"Dayr al ‘Asal al Fawqā",
      "state":"",
      "country":"PS",
      "coord":{
         "lon":34.93832,
         "lat":31.468321
      }
   },
   {
      "id":283123,
      "name":"Bayt Ta‘mar",
      "state":"",
      "country":"PS",
      "coord":{
         "lon":35.239861,
         "lat":31.67927
      }
   },
   {
      "id":283128,
      "name":"Bayt Ḩasan",
      "state":"",
      "country":"PS",
      "coord":{
         "lon":35.404072,
         "lat":32.237598
      }
   },
   {
      "id":283129,
      "name":"Bayt ‘Awwā",
      "state":"",
      "country":"PS",
      "coord":{
         "lon":34.949379,
         "lat":31.509109
      }
   },
   {
      "id":283133,
      "name":"Jannātah",
      "state":"",
      "country":"PS",
      "coord":{
         "lon":35.219608,
         "lat":31.66958
      }
   },
   {
      "id":283142,
      "name":"Ash Shaykh Sa‘d",
      "state":"",
      "country":"PS",
      "coord":{
         "lon":35.25742,
         "lat":31.737209
      }
   },
   {
      "id":283155,
      "name":"An Naşşārīyah",
      "state":"",
      "country":"PS",
      "coord":{
         "lon":35.387112,
         "lat":32.236469
      }
   },
   {
      "id":283157,
      "name":"Kharbathā al Mişbāḩ",
      "state":"",
      "country":"PS",
      "coord":{
         "lon":35.07185,
         "lat":31.88546
      }
   },
   {
      "id":283159,
      "name":"Al Majd",
      "state":"",
      "country":"PS",
      "coord":{
         "lon":34.95108,
         "lat":31.48056
      }
   },
   {
      "id":283165,
      "name":"Karmah",
      "state":"",
      "country":"PS",
      "coord":{
         "lon":35.02689,
         "lat":31.45182
      }
   },
   {
      "id":283176,
      "name":"Al Burj",
      "state":"",
      "country":"PS",
      "coord":{
         "lon":34.916969,
         "lat":31.43609
      }
   },
   {
      "id":283180,
      "name":"Shuyūkh al ‘Arrūb",
      "state":"",
      "country":"PS",
      "coord":{
         "lon":35.143661,
         "lat":31.61735
      }
   },
   {
      "id":283189,
      "name":"Khirbat Abū Falāḩ",
      "state":"",
      "country":"PS",
      "coord":{
         "lon":35.30135,
         "lat":32.016781
      }
   },
   {
      "id":283245,
      "name":"Kharbathā Banī Ḩārith",
      "state":"",
      "country":"PS",
      "coord":{
         "lon":35.071941,
         "lat":31.94508
      }
   },
   {
      "id":283246,
      "name":"Khārās",
      "state":"",
      "country":"PS",
      "coord":{
         "lon":35.04174,
         "lat":31.614799
      }
   },
   {
      "id":283286,
      "name":"Khallat al Mayyah",
      "state":"",
      "country":"PS",
      "coord":{
         "lon":35.14286,
         "lat":31.442221
      }
   },
   {
      "id":283316,
      "name":"Kūbar",
      "state":"",
      "country":"PS",
      "coord":{
         "lon":35.157879,
         "lat":31.987221
      }
   },
   {
      "id":283348,
      "name":"Kafr Zībād",
      "state":"",
      "country":"PS",
      "coord":{
         "lon":35.071789,
         "lat":32.225842
      }
   },
   {
      "id":283351,
      "name":"Kafr Thulth",
      "state":"",
      "country":"PS",
      "coord":{
         "lon":35.046982,
         "lat":32.153301
      }
   },
   {
      "id":283353,
      "name":"Kafr Şūr",
      "state":"",
      "country":"PS",
      "coord":{
         "lon":35.063938,
         "lat":32.24366
      }
   },
   {
      "id":283361,
      "name":"Kafr Rā‘ī",
      "state":"",
      "country":"PS",
      "coord":{
         "lon":35.15451,
         "lat":32.373981
      }
   },
   {
      "id":283362,
      "name":"Kafr Qūd",
      "state":"",
      "country":"PS",
      "coord":{
         "lon":35.22649,
         "lat":32.456612
      }
   },
   {
      "id":283365,
      "name":"Kafr Qallīl",
      "state":"",
      "country":"PS",
      "coord":{
         "lon":35.282841,
         "lat":32.193508
      }
   },
   {
      "id":283366,
      "name":"Kafr Qaddūm",
      "state":"",
      "country":"PS",
      "coord":{
         "lon":35.144711,
         "lat":32.221619
      }
   },
   {
      "id":283370,
      "name":"Kafr Mālik",
      "state":"",
      "country":"PS",
      "coord":{
         "lon":35.309319,
         "lat":31.9884
      }
   },
   {
      "id":283373,
      "name":"Kafr Jammāl",
      "state":"",
      "country":"PS",
      "coord":{
         "lon":35.043369,
         "lat":32.22551
      }
   },
   {
      "id":283378,
      "name":"Kafr Dān",
      "state":"",
      "country":"PS",
      "coord":{
         "lon":35.25425,
         "lat":32.478519
      }
   },
   {
      "id":283379,
      "name":"Kafr ‘Ayn",
      "state":"",
      "country":"PS",
      "coord":{
         "lon":35.12038,
         "lat":32.047581
      }
   },
   {
      "id":283384,
      "name":"Kafr al Labad",
      "state":"",
      "country":"PS",
      "coord":{
         "lon":35.10955,
         "lat":32.299671
      }
   },
   {
      "id":283385,
      "name":"Kafr ad Dīk",
      "state":"",
      "country":"PS",
      "coord":{
         "lon":35.08287,
         "lat":32.067101
      }
   },
   {
      "id":283386,
      "name":"Kafr ‘Abbūsh",
      "state":"",
      "country":"PS",
      "coord":{
         "lon":35.085041,
         "lat":32.22353
      }
   },
   {
      "id":283408,
      "name":"Jūrīsh",
      "state":"",
      "country":"PS",
      "coord":{
         "lon":35.32188,
         "lat":32.101879
      }
   },
   {
      "id":283419,
      "name":"Jūrat ash Sham‘ah",
      "state":"",
      "country":"PS",
      "coord":{
         "lon":35.17001,
         "lat":31.650511
      }
   },
   {
      "id":283444,
      "name":"Al Judayyidah",
      "state":"",
      "country":"PS",
      "coord":{
         "lon":35.301079,
         "lat":32.335411
      }
   },
   {
      "id":283449,
      "name":"Jīt",
      "state":"",
      "country":"PS",
      "coord":{
         "lon":35.170811,
         "lat":32.21431
      }
   },
   {
      "id":283464,
      "name":"Jifnā",
      "state":"",
      "country":"PS",
      "coord":{
         "lon":35.213379,
         "lat":31.96192
      }
   },
   {
      "id":283469,
      "name":"Jayyūs",
      "state":"",
      "country":"PS",
      "coord":{
         "lon":35.034161,
         "lat":32.201248
      }
   },
   {
      "id":283506,
      "name":"Janīn",
      "state":"",
      "country":"PS",
      "coord":{
         "lon":35.295101,
         "lat":32.458839
      }
   },
   {
      "id":283521,
      "name":"Jammā‘īn",
      "state":"",
      "country":"PS",
      "coord":{
         "lon":35.204041,
         "lat":32.131641
      }
   },
   {
      "id":283536,
      "name":"Jalqamūs",
      "state":"",
      "country":"PS",
      "coord":{
         "lon":35.364208,
         "lat":32.424641
      }
   },
   {
      "id":283540,
      "name":"Jalbūn",
      "state":"",
      "country":"PS",
      "coord":{
         "lon":35.415161,
         "lat":32.459572
      }
   },
   {
      "id":283547,
      "name":"Al Jalamah",
      "state":"",
      "country":"PS",
      "coord":{
         "lon":35.313171,
         "lat":32.508209
      }
   },
   {
      "id":283570,
      "name":"Jaba‘",
      "state":"",
      "country":"PS",
      "coord":{
         "lon":35.221321,
         "lat":32.324089
      }
   },
   {
      "id":283571,
      "name":"Jaba‘",
      "state":"",
      "country":"PS",
      "coord":{
         "lon":35.258678,
         "lat":31.857269
      }
   },
   {
      "id":283609,
      "name":"Immātīn",
      "state":"",
      "country":"PS",
      "coord":{
         "lon":35.15836,
         "lat":32.191639
      }
   },
   {
      "id":283612,
      "name":"‘Illār",
      "state":"",
      "country":"PS",
      "coord":{
         "lon":35.107079,
         "lat":32.370239
      }
   },
   {
      "id":283614,
      "name":"Iktābah",
      "state":"",
      "country":"PS",
      "coord":{
         "lon":35.05262,
         "lat":32.326599
      }
   },
   {
      "id":283621,
      "name":"Idhnā",
      "state":"",
      "country":"PS",
      "coord":{
         "lon":34.974361,
         "lat":31.558741
      }
   },
   {
      "id":283636,
      "name":"Ḩuwwārah",
      "state":"",
      "country":"PS",
      "coord":{
         "lon":35.256729,
         "lat":32.152241
      }
   },
   {
      "id":283643,
      "name":"Ḩūsān",
      "state":"",
      "country":"PS",
      "coord":{
         "lon":35.13475,
         "lat":31.709311
      }
   },
   {
      "id":283676,
      "name":"Ḩizmā",
      "state":"",
      "country":"PS",
      "coord":{
         "lon":35.263149,
         "lat":31.83337
      }
   },
   {
      "id":283735,
      "name":"Ḩāris",
      "state":"",
      "country":"PS",
      "coord":{
         "lon":35.141918,
         "lat":32.114239
      }
   },
   {
      "id":283806,
      "name":"Ḩalḩūl",
      "state":"",
      "country":"PS",
      "coord":{
         "lon":35.105438,
         "lat":31.578581
      }
   },
   {
      "id":283812,
      "name":"Ḩajjah",
      "state":"",
      "country":"PS",
      "coord":{
         "lon":35.130772,
         "lat":32.204269
      }
   },
   {
      "id":283843,
      "name":"Ḩablah",
      "state":"",
      "country":"PS",
      "coord":{
         "lon":34.977482,
         "lat":32.16523
      }
   },
   {
      "id":283918,
      "name":"Far‘ūn",
      "state":"",
      "country":"PS",
      "coord":{
         "lon":35.023258,
         "lat":32.286129
      }
   },
   {
      "id":283955,
      "name":"Farkhah",
      "state":"",
      "country":"PS",
      "coord":{
         "lon":35.152859,
         "lat":32.068779
      }
   },
   {
      "id":283971,
      "name":"Faqqū‘ah",
      "state":"",
      "country":"PS",
      "coord":{
         "lon":35.40163,
         "lat":32.489979
      }
   },
   {
      "id":283976,
      "name":"Faḩmah",
      "state":"",
      "country":"PS",
      "coord":{
         "lon":35.179119,
         "lat":32.382912
      }
   },
   {
      "id":284010,
      "name":"Dūrā al Qar‘",
      "state":"",
      "country":"PS",
      "coord":{
         "lon":35.227139,
         "lat":31.95862
      }
   },
   {
      "id":284011,
      "name":"Dūrā",
      "state":"",
      "country":"PS",
      "coord":{
         "lon":35.02652,
         "lat":31.507
      }
   },
   {
      "id":284013,
      "name":"Domea",
      "state":"",
      "country":"PS",
      "coord":{
         "lon":35.36705,
         "lat":32.05632
      }
   },
   {
      "id":284046,
      "name":"Dhannābah",
      "state":"",
      "country":"PS",
      "coord":{
         "lon":35.041439,
         "lat":32.313412
      }
   },
   {
      "id":284054,
      "name":"Dayr Sharaf",
      "state":"",
      "country":"PS",
      "coord":{
         "lon":35.188931,
         "lat":32.253262
      }
   },
   {
      "id":284065,
      "name":"Dayr Qiddīs",
      "state":"",
      "country":"PS",
      "coord":{
         "lon":35.044369,
         "lat":31.94862
      }
   },
   {
      "id":284069,
      "name":"Dayr Jarīr",
      "state":"",
      "country":"PS",
      "coord":{
         "lon":35.29261,
         "lat":31.96636
      }
   },
   {
      "id":284071,
      "name":"Dayr Istiyā",
      "state":"",
      "country":"PS",
      "coord":{
         "lon":35.139629,
         "lat":32.130959
      }
   },
   {
      "id":284072,
      "name":"Dayr Ibzī‘",
      "state":"",
      "country":"PS",
      "coord":{
         "lon":35.121052,
         "lat":31.917271
      }
   },
   {
      "id":284078,
      "name":"Dayr Dibwān",
      "state":"",
      "country":"PS",
      "coord":{
         "lon":35.266609,
         "lat":31.911119
      }
   },
   {
      "id":284081,
      "name":"Dayr Ballūţ",
      "state":"",
      "country":"PS",
      "coord":{
         "lon":35.024509,
         "lat":32.06551
      }
   },
   {
      "id":284085,
      "name":"Dayr as Sūdān",
      "state":"",
      "country":"PS",
      "coord":{
         "lon":35.148441,
         "lat":32.032131
      }
   },
   {
      "id":284099,
      "name":"Dayr al Ḩaţab",
      "state":"",
      "country":"PS",
      "coord":{
         "lon":35.32127,
         "lat":32.217339
      }
   },
   {
      "id":284100,
      "name":"Dayr al Ghuşūn",
      "state":"",
      "country":"PS",
      "coord":{
         "lon":35.076889,
         "lat":32.35244
      }
   },
   {
      "id":284104,
      "name":"Dayr Abū Mash‘al",
      "state":"",
      "country":"PS",
      "coord":{
         "lon":35.068439,
         "lat":31.99881
      }
   },
   {
      "id":284105,
      "name":"Dayr Abū Ḑa‘īf",
      "state":"",
      "country":"PS",
      "coord":{
         "lon":35.361641,
         "lat":32.456009
      }
   },
   {
      "id":284187,
      "name":"Brūqīn",
      "state":"",
      "country":"PS",
      "coord":{
         "lon":35.09943,
         "lat":32.072159
      }
   },
   {
      "id":284194,
      "name":"Birqīn",
      "state":"",
      "country":"PS",
      "coord":{
         "lon":35.260761,
         "lat":32.454609
      }
   },
   {
      "id":284196,
      "name":"Burqah",
      "state":"",
      "country":"PS",
      "coord":{
         "lon":35.192631,
         "lat":32.301769
      }
   },
   {
      "id":284197,
      "name":"Burqah",
      "state":"",
      "country":"PS",
      "coord":{
         "lon":35.254299,
         "lat":31.89682
      }
   },
   {
      "id":284214,
      "name":"Būrīn",
      "state":"",
      "country":"PS",
      "coord":{
         "lon":35.250149,
         "lat":32.184521
      }
   },
   {
      "id":284228,
      "name":"Budrus",
      "state":"",
      "country":"PS",
      "coord":{
         "lon":34.994251,
         "lat":31.966869
      }
   },
   {
      "id":284237,
      "name":"Bīr Zayt",
      "state":"",
      "country":"PS",
      "coord":{
         "lon":35.19408,
         "lat":31.969589
      }
   },
   {
      "id":284238,
      "name":"Bīr Nabālā",
      "state":"",
      "country":"PS",
      "coord":{
         "lon":35.203602,
         "lat":31.8508
      }
   },
   {
      "id":284269,
      "name":"Bil‘īn",
      "state":"",
      "country":"PS",
      "coord":{
         "lon":35.072041,
         "lat":31.92835
      }
   },
   {
      "id":284270,
      "name":"Biddū",
      "state":"",
      "country":"PS",
      "coord":{
         "lon":35.149471,
         "lat":31.83478
      }
   },
   {
      "id":284271,
      "name":"Bidyā",
      "state":"",
      "country":"PS",
      "coord":{
         "lon":35.08028,
         "lat":32.114601
      }
   },
   {
      "id":284284,
      "name":"Bazzāryah",
      "state":"",
      "country":"PS",
      "coord":{
         "lon":35.165932,
         "lat":32.30798
      }
   },
   {
      "id":284291,
      "name":"Bayt Wazan",
      "state":"",
      "country":"PS",
      "coord":{
         "lon":35.215759,
         "lat":32.231049
      }
   },
   {
      "id":284292,
      "name":"Bayt ‘Ūr at Taḩtā",
      "state":"",
      "country":"PS",
      "coord":{
         "lon":35.081779,
         "lat":31.89609
      }
   },
   {
      "id":284294,
      "name":"Baytūnyā",
      "state":"",
      "country":"PS",
      "coord":{
         "lon":35.170479,
         "lat":31.896601
      }
   },
   {
      "id":284295,
      "name":"Bayt Imrīn",
      "state":"",
      "country":"PS",
      "coord":{
         "lon":35.216099,
         "lat":32.293011
      }
   },
   {
      "id":284297,
      "name":"Bayt Sūrīk",
      "state":"",
      "country":"PS",
      "coord":{
         "lon":35.149361,
         "lat":31.82424
      }
   },
   {
      "id":284298,
      "name":"Bayt Sīrā",
      "state":"",
      "country":"PS",
      "coord":{
         "lon":35.04623,
         "lat":31.8878
      }
   },
   {
      "id":284304,
      "name":"Bayt Sāḩūr",
      "state":"",
      "country":"PS",
      "coord":{
         "lon":35.226311,
         "lat":31.700951
      }
   },
   {
      "id":284305,
      "name":"Beit Ṣafāfā",
      "state":"",
      "country":"IL",
      "coord":{
         "lon":35.203041,
         "lat":31.74267
      }
   },
   {
      "id":284308,
      "name":"Bayt Qād",
      "state":"",
      "country":"PS",
      "coord":{
         "lon":35.356258,
         "lat":32.469681
      }
   },
   {
      "id":284312,
      "name":"Bayt Liqyā",
      "state":"",
      "country":"PS",
      "coord":{
         "lon":35.065399,
         "lat":31.869579
      }
   },
   {
      "id":284313,
      "name":"Bayt Līd",
      "state":"",
      "country":"PS",
      "coord":{
         "lon":35.131691,
         "lat":32.260891
      }
   },
   {
      "id":284315,
      "name":"Bethlehem",
      "state":"",
      "country":"PS",
      "coord":{
         "lon":35.200321,
         "lat":31.70619
      }
   },
   {
      "id":284320,
      "name":"Bayt Kāḩil",
      "state":"",
      "country":"PS",
      "coord":{
         "lon":35.065022,
         "lat":31.57011
      }
   },
   {
      "id":284324,
      "name":"Bayt Jālā",
      "state":"",
      "country":"PS",
      "coord":{
         "lon":35.187881,
         "lat":31.71545
      }
   },
   {
      "id":284326,
      "name":"Bayt ‘Anān",
      "state":"",
      "country":"PS",
      "coord":{
         "lon":35.11248,
         "lat":31.850691
      }
   },
   {
      "id":284328,
      "name":"Baytīn",
      "state":"",
      "country":"PS",
      "coord":{
         "lon":35.240978,
         "lat":31.926741
      }
   },
   {
      "id":284329,
      "name":"Bayt Ūmmar",
      "state":"",
      "country":"PS",
      "coord":{
         "lon":35.104462,
         "lat":31.623289
      }
   },
   {
      "id":284330,
      "name":"Al Ittiḩād",
      "state":"",
      "country":"PS",
      "coord":{
         "lon":35.115952,
         "lat":31.975519
      }
   },
   {
      "id":284334,
      "name":"Bayt Ībā",
      "state":"",
      "country":"PS",
      "coord":{
         "lon":35.20977,
         "lat":32.23719
      }
   },
   {
      "id":284339,
      "name":"Bayt Fūrīk",
      "state":"",
      "country":"PS",
      "coord":{
         "lon":35.335411,
         "lat":32.176891
      }
   },
   {
      "id":284341,
      "name":"Bayt Fajjār",
      "state":"",
      "country":"PS",
      "coord":{
         "lon":35.154572,
         "lat":31.62443
      }
   },
   {
      "id":284342,
      "name":"Bayt Duqqū",
      "state":"",
      "country":"PS",
      "coord":{
         "lon":35.131241,
         "lat":31.85911
      }
   },
   {
      "id":284343,
      "name":"Bayt Dajan",
      "state":"",
      "country":"PS",
      "coord":{
         "lon":35.371269,
         "lat":32.193031
      }
   },
   {
      "id":284347,
      "name":"Bayt Ūlā",
      "state":"",
      "country":"PS",
      "coord":{
         "lon":35.029598,
         "lat":31.59618
      }
   },
   {
      "id":284362,
      "name":"Baytā al Fawqā",
      "state":"",
      "country":"PS",
      "coord":{
         "lon":35.287739,
         "lat":32.142601
      }
   },
   {
      "id":284376,
      "name":"Battīr",
      "state":"",
      "country":"PS",
      "coord":{
         "lon":35.141029,
         "lat":31.71945
      }
   },
   {
      "id":284405,
      "name":"Barţa‘ah ash Sharqīyah",
      "state":"",
      "country":"PS",
      "coord":{
         "lon":35.093601,
         "lat":32.473042
      }
   },
   {
      "id":284415,
      "name":"Bardalah",
      "state":"",
      "country":"PS",
      "coord":{
         "lon":35.480839,
         "lat":32.386318
      }
   },
   {
      "id":284426,
      "name":"Bāqah ash Sharqīyah",
      "state":"",
      "country":"PS",
      "coord":{
         "lon":35.070541,
         "lat":32.41032
      }
   },
   {
      "id":284427,
      "name":"Bāqat al Ḩaţab",
      "state":"",
      "country":"PS",
      "coord":{
         "lon":35.11433,
         "lat":32.204342
      }
   },
   {
      "id":284431,
      "name":"Banī Na‘īm",
      "state":"",
      "country":"PS",
      "coord":{
         "lon":35.164162,
         "lat":31.515909
      }
   },
   {
      "id":284446,
      "name":"Balāţah",
      "state":"",
      "country":"PS",
      "coord":{
         "lon":35.28561,
         "lat":32.21207
      }
   },
   {
      "id":284461,
      "name":"Bal‘ā",
      "state":"",
      "country":"PS",
      "coord":{
         "lon":35.111599,
         "lat":32.33392
      }
   },
   {
      "id":284480,
      "name":"‘Azzūn",
      "state":"",
      "country":"PS",
      "coord":{
         "lon":35.057522,
         "lat":32.174961
      }
   },
   {
      "id":284485,
      "name":"Az Zāwiyah",
      "state":"",
      "country":"PS",
      "coord":{
         "lon":35.039822,
         "lat":32.096272
      }
   },
   {
      "id":284486,
      "name":"Az̧ Z̧āhirīyah",
      "state":"",
      "country":"PS",
      "coord":{
         "lon":34.973289,
         "lat":31.40967
      }
   },
   {
      "id":284487,
      "name":"Az Zabābidah",
      "state":"",
      "country":"PS",
      "coord":{
         "lon":35.324108,
         "lat":32.38665
      }
   },
   {
      "id":284489,
      "name":"‘Azmūţ",
      "state":"",
      "country":"PS",
      "coord":{
         "lon":35.309891,
         "lat":32.222969
      }
   },
   {
      "id":284495,
      "name":"‘Ayn Yabrūd",
      "state":"",
      "country":"PS",
      "coord":{
         "lon":35.251221,
         "lat":31.949181
      }
   },
   {
      "id":284515,
      "name":"‘Ayn ‘Arīk",
      "state":"",
      "country":"PS",
      "coord":{
         "lon":35.14254,
         "lat":31.90613
      }
   },
   {
      "id":284524,
      "name":"‘Aynabūs",
      "state":"",
      "country":"PS",
      "coord":{
         "lon":35.245129,
         "lat":32.14706
      }
   },
   {
      "id":284540,
      "name":"Usarin",
      "state":"",
      "country":"PS",
      "coord":{
         "lon":35.30999,
         "lat":32.124989
      }
   },
   {
      "id":284547,
      "name":"‘Awartā",
      "state":"",
      "country":"PS",
      "coord":{
         "lon":35.283878,
         "lat":32.161079
      }
   },
   {
      "id":284555,
      "name":"Aţ Ţūr",
      "state":"",
      "country":"PS",
      "coord":{
         "lon":35.249329,
         "lat":31.782721
      }
   },
   {
      "id":284556,
      "name":"Aţ Ţīrah",
      "state":"",
      "country":"PS",
      "coord":{
         "lon":35.12682,
         "lat":31.87022
      }
   },
   {
      "id":284557,
      "name":"‘Attīl",
      "state":"",
      "country":"PS",
      "coord":{
         "lon":35.071892,
         "lat":32.36935
      }
   },
   {
      "id":284558,
      "name":"Aţ Ţaybah",
      "state":"",
      "country":"PS",
      "coord":{
         "lon":35.185741,
         "lat":32.514938
      }
   },
   {
      "id":284559,
      "name":"Aţ Ţaybah",
      "state":"",
      "country":"PS",
      "coord":{
         "lon":35.299801,
         "lat":31.95388
      }
   },
   {
      "id":284563,
      "name":"‘Aţārah",
      "state":"",
      "country":"PS",
      "coord":{
         "lon":35.204659,
         "lat":32.00058
      }
   },
   {
      "id":284581,
      "name":"As Sāwiyah",
      "state":"",
      "country":"PS",
      "coord":{
         "lon":35.25782,
         "lat":32.085369
      }
   },
   {
      "id":284583,
      "name":"As Samū‘",
      "state":"",
      "country":"PS",
      "coord":{
         "lon":35.066109,
         "lat":31.396709
      }
   },
   {
      "id":284593,
      "name":"‘Aşīrah ash Shamālīyah",
      "state":"",
      "country":"PS",
      "coord":{
         "lon":35.267159,
         "lat":32.25124
      }
   },
   {
      "id":284594,
      "name":"‘Aşīrah al Qiblīyah",
      "state":"",
      "country":"PS",
      "coord":{
         "lon":35.215691,
         "lat":32.178421
      }
   },
   {
      "id":284597,
      "name":"Ash Shuyūkh",
      "state":"",
      "country":"PS",
      "coord":{
         "lon":35.156059,
         "lat":31.57004
      }
   },
   {
      "id":284598,
      "name":"Ash Shuhadā’",
      "state":"",
      "country":"PS",
      "coord":{
         "lon":35.271118,
         "lat":32.429489
      }
   },
   {
      "id":284868,
      "name":"Arţās",
      "state":"",
      "country":"PS",
      "coord":{
         "lon":35.18681,
         "lat":31.68939
      }
   },
   {
      "id":284881,
      "name":"Ar Rīḩīyah",
      "state":"",
      "country":"PS",
      "coord":{
         "lon":35.077808,
         "lat":31.4695
      }
   },
   {
      "id":284888,
      "name":"‘Arrānah",
      "state":"",
      "country":"PS",
      "coord":{
         "lon":35.322708,
         "lat":32.4972
      }
   },
   {
      "id":284890,
      "name":"Ar Rām wa Ḑāḩiyat al Barīd",
      "state":"",
      "country":"PS",
      "coord":{
         "lon":35.23402,
         "lat":31.855391
      }
   },
   {
      "id":284893,
      "name":"‘Arrābah",
      "state":"",
      "country":"PS",
      "coord":{
         "lon":35.201889,
         "lat":32.40517
      }
   },
   {
      "id":284899,
      "name":"Jericho",
      "state":"",
      "country":"PS",
      "coord":{
         "lon":35.450001,
         "lat":31.866671
      }
   },
   {
      "id":284904,
      "name":"Al ‘Araqa",
      "state":"",
      "country":"PS",
      "coord":{
         "lon":35.200272,
         "lat":32.47057
      }
   },
   {
      "id":284922,
      "name":"‘Aqrabā",
      "state":"",
      "country":"PS",
      "coord":{
         "lon":35.34547,
         "lat":32.12495
      }
   },
   {
      "id":284933,
      "name":"‘Anzah",
      "state":"",
      "country":"PS",
      "coord":{
         "lon":35.220112,
         "lat":32.359161
      }
   },
   {
      "id":284935,
      "name":"An Nuway‘imah",
      "state":"",
      "country":"PS",
      "coord":{
         "lon":35.43549,
         "lat":31.89212
      }
   },
   {
      "id":284936,
      "name":"An Nazlah ash Sharqīyah",
      "state":"",
      "country":"PS",
      "coord":{
         "lon":35.109161,
         "lat":32.410721
      }
   },
   {
      "id":284939,
      "name":"An Nāqūrah",
      "state":"",
      "country":"PS",
      "coord":{
         "lon":35.201351,
         "lat":32.26506
      }
   },
   {
      "id":284962,
      "name":"An Nabī Ilyās",
      "state":"",
      "country":"PS",
      "coord":{
         "lon":35.017601,
         "lat":32.184818
      }
   },
   {
      "id":284972,
      "name":"‘Anīn",
      "state":"",
      "country":"PS",
      "coord":{
         "lon":35.166679,
         "lat":32.50259
      }
   },
   {
      "id":284973,
      "name":"‘Anātā",
      "state":"",
      "country":"PS",
      "coord":{
         "lon":35.259022,
         "lat":31.80924
      }
   },
   {
      "id":284976,
      "name":"‘Anabtā",
      "state":"",
      "country":"PS",
      "coord":{
         "lon":35.116928,
         "lat":32.307919
      }
   },
   {
      "id":284999,
      "name":"Al Yāmūn",
      "state":"",
      "country":"PS",
      "coord":{
         "lon":35.2267,
         "lat":32.4846
      }
   },
   {
      "id":285009,
      "name":"Al Qubaybah",
      "state":"",
      "country":"PS",
      "coord":{
         "lon":35.13678,
         "lat":31.83886
      }
   },
   {
      "id":285023,
      "name":"Al Mughayyir",
      "state":"",
      "country":"PS",
      "coord":{
         "lon":35.384762,
         "lat":32.422279
      }
   },
   {
      "id":285024,
      "name":"Al Mughayyir",
      "state":"",
      "country":"PS",
      "coord":{
         "lon":35.347832,
         "lat":32.019199
      }
   },
   {
      "id":285032,
      "name":"Al Midyah",
      "state":"",
      "country":"PS",
      "coord":{
         "lon":35.005001,
         "lat":31.935921
      }
   },
   {
      "id":285033,
      "name":"Al Mazra‘ah ash Sharqīyah",
      "state":"",
      "country":"PS",
      "coord":{
         "lon":35.281521,
         "lat":32.000179
      }
   },
   {
      "id":285034,
      "name":"Az Zaytūnīyah",
      "state":"",
      "country":"PS",
      "coord":{
         "lon":35.162399,
         "lat":31.95402
      }
   },
   {
      "id":285049,
      "name":"Al Lubban al Gharbī",
      "state":"",
      "country":"PS",
      "coord":{
         "lon":35.03928,
         "lat":32.035042
      }
   },
   {
      "id":285061,
      "name":"Al Khaḑir",
      "state":"",
      "country":"PS",
      "coord":{
         "lon":35.166851,
         "lat":31.69405
      }
   },
   {
      "id":285066,
      "name":"Hebron",
      "state":"",
      "country":"PS",
      "coord":{
         "lon":35.099998,
         "lat":31.533331
      }
   },
   {
      "id":285069,
      "name":"Al Judayrah",
      "state":"",
      "country":"PS",
      "coord":{
         "lon":35.19706,
         "lat":31.855869
      }
   },
   {
      "id":285070,
      "name":"Al Jīb",
      "state":"",
      "country":"PS",
      "coord":{
         "lon":35.184509,
         "lat":31.85203
      }
   },
   {
      "id":285071,
      "name":"Al Jāniyah",
      "state":"",
      "country":"PS",
      "coord":{
         "lon":35.121422,
         "lat":31.93848
      }
   },
   {
      "id":285091,
      "name":"Al Hāshimīyah",
      "state":"",
      "country":"PS",
      "coord":{
         "lon":35.219379,
         "lat":32.463921
      }
   },
   {
      "id":285094,
      "name":"Al Ḩaram ash Sharīf",
      "state":"",
      "country":"PS",
      "coord":{
         "lon":35.23333,
         "lat":31.783331
      }
   },
   {
      "id":285102,
      "name":"Al Faşāyil",
      "state":"",
      "country":"PS",
      "coord":{
         "lon":35.443508,
         "lat":32.025089
      }
   },
   {
      "id":285103,
      "name":"Al Fandaqūmīyah",
      "state":"",
      "country":"PS",
      "coord":{
         "lon":35.203289,
         "lat":32.320599
      }
   },
   {
      "id":285108,
      "name":"Al Bīrah",
      "state":"",
      "country":"PS",
      "coord":{
         "lon":35.220612,
         "lat":31.907209
      }
   },
   {
      "id":285111,
      "name":"Al ‘Ayzarīyah",
      "state":"",
      "country":"PS",
      "coord":{
         "lon":35.269161,
         "lat":31.770781
      }
   },
   {
      "id":285112,
      "name":"Al ‘Awjā",
      "state":"",
      "country":"PS",
      "coord":{
         "lon":35.46756,
         "lat":31.950689
      }
   },
   {
      "id":285113,
      "name":"Al ‘Aţţārah",
      "state":"",
      "country":"PS",
      "coord":{
         "lon":35.163731,
         "lat":32.32571
      }
   },
   {
      "id":285126,
      "name":"‘Ajjūl",
      "state":"",
      "country":"PS",
      "coord":{
         "lon":35.179691,
         "lat":32.02232
      }
   },
   {
      "id":285127,
      "name":"‘Ajjah",
      "state":"",
      "country":"PS",
      "coord":{
         "lon":35.1959,
         "lat":32.360741
      }
   },
   {
      "id":285153,
      "name":"West Bank",
      "state":"",
      "country":"PS",
      "coord":{
         "lon":35.25,
         "lat":31.66667
      }
   },
   {
      "id":285161,
      "name":"‘Ibwayn",
      "state":"",
      "country":"PS",
      "coord":{
         "lon":35.199921,
         "lat":32.031441
      }
   },
   {
      "id":285220,
      "name":"Abū Qashsh",
      "state":"",
      "country":"PS",
      "coord":{
         "lon":35.184261,
         "lat":31.94883
      }
   },
   {
      "id":285279,
      "name":"Abū Dīs",
      "state":"",
      "country":"PS",
      "coord":{
         "lon":35.261662,
         "lat":31.76215
      }
   },
   {
      "id":285285,
      "name":"‘Ābūd",
      "state":"",
      "country":"PS",
      "coord":{
         "lon":35.068329,
         "lat":32.016369
      }
   }
]